[{"id_parque":"P037","nome":"Rego","activo":1,"id_entidade":7,"capacidade_max":238,"ocupacao":39,"data_ocupacao":"2021-10-13 19:42:23","latitude":"38.744582","longitude":"-9.159954","tipo":"Estrutura"},{"id_parque":"P040","nome":"Mercado de Alvalade","activo":1,"id_entidade":7,"capacidade_max":118,"ocupacao":29,"data_ocupacao":"2021-10-13 19:42:23","latitude":"38.755424","longitude":"-9.139498","tipo":"Superf\u00edcie"},{"id_parque":"P030","nome":"Combatentes","activo":1,"id_entidade":7,"capacidade_max":155,"ocupacao":27,"data_ocupacao":"2021-10-13 19:42:24","latitude":"38.745735","longitude":"-9.162904","tipo":"Superf\u00edcie"},{"id_parque":"P014","nome":"Alto do Parque","activo":1,"id_entidade":3,"capacidade_max":474,"ocupacao":230,"data_ocupacao":"2021-10-13 19:42:21","latitude":"38.731063","longitude":"-9.153596","tipo":"Estrutura"},{"id_parque":"P008","nome":"Valbom","activo":1,"id_entidade":2,"capacidade_max":513,"ocupacao":341,"data_ocupacao":"2021-10-13 19:42:22","latitude":"38.7366155609067","longitude":"-9.15176054084168","tipo":"Estrutura"},{"id_parque":"P063","nome":"Cosme Dami\u00e3o","activo":1,"id_entidade":7,"capacidade_max":286,"ocupacao":133,"data_ocupacao":"2021-10-13 19:42:23","latitude":"38.716819","longitude":"-9.128867","tipo":"Estrutura"},{"id_parque":"P042","nome":"Alc\u00e2ntara","activo":1,"id_entidade":7,"capacidade_max":202,"ocupacao":67,"data_ocupacao":"2021-10-13 19:42:23","latitude":"38.706007","longitude":"-9.175066","tipo":"Superf\u00edcie"},{"id_parque":"P035","nome":"Parque Mayer","activo":1,"id_entidade":7,"capacidade_max":81,"ocupacao":19,"data_ocupacao":"2021-10-13 19:42:23","latitude":"38.719062","longitude":"-9.145547","tipo":"Superf\u00edcie"},{"id_parque":"P015","nome":"Cidade Universitaria","activo":1,"id_entidade":7,"capacidade_max":620,"ocupacao":147,"data_ocupacao":"2021-10-13 19:42:25","latitude":"38.750596","longitude":"-9.155042","tipo":"Superf\u00edcie"},{"id_parque":"P019","nome":"El Corte Ingl\u00e9s","activo":1,"id_entidade":4,"capacidade_max":2000,"ocupacao":1005,"data_ocupacao":"2021-10-13 19:42:22","latitude":"38.7352591","longitude":"-9.15528429","tipo":"Estrutura"},{"id_parque":"P017","nome":"Pra\u00e7a de Londres","activo":1,"id_entidade":2,"capacidade_max":240,"ocupacao":189,"data_ocupacao":"2021-10-13 19:42:22","latitude":"38.7408069","longitude":"-9.13714389999996","tipo":"Estrutura"},{"id_parque":"P048","nome":"Campo das Cebolas","activo":1,"id_entidade":7,"capacidade_max":205,"ocupacao":38,"data_ocupacao":"2021-10-13 19:42:23","latitude":"38.70888","longitude":"-9.131141","tipo":"Estrutura"},{"id_parque":"P032","nome":"Estrada da Luz","activo":1,"id_entidade":7,"capacidade_max":98,"ocupacao":83,"data_ocupacao":"2021-10-13 19:42:24","latitude":"38.749827","longitude":"-9.170943","tipo":"Superf\u00edcie"},{"id_parque":"P004","nome":"Atrium Saldanha","activo":1,"id_entidade":6,"capacidade_max":251,"ocupacao":133,"data_ocupacao":"2021-10-13 19:42:25","latitude":"38.7332687356758","longitude":"-9.1446021616448","tipo":"Estrutura"},{"id_parque":"P003","nome":"Saldanha","activo":1,"id_entidade":2,"capacidade_max":503,"ocupacao":373,"data_ocupacao":"2021-10-13 19:42:21","latitude":"38.7335172346174","longitude":"-9.14573228492395","tipo":"Estrutura"},{"id_parque":"P012","nome":"Berna","activo":1,"id_entidade":2,"capacidade_max":354,"ocupacao":232,"data_ocupacao":"2021-10-13 19:42:22","latitude":"38.7394789","longitude":"-9.1520223","tipo":"Estrutura"},{"id_parque":"P002","nome":"Picoas Plaza","activo":1,"id_entidade":5,"capacidade_max":400,"ocupacao":209,"data_ocupacao":"2021-10-13 19:42:22","latitude":"38.7313746","longitude":"-9.1483930362","tipo":"Estrutura"},{"id_parque":"P043","nome":"Ameixoeira","activo":1,"id_entidade":7,"capacidade_max":501,"ocupacao":59,"data_ocupacao":"2021-10-13 19:42:23","latitude":"38.779591","longitude":"-9.158056","tipo":"Superf\u00edcie"},{"id_parque":"P033","nome":"Lumiar","activo":1,"id_entidade":7,"capacidade_max":160,"ocupacao":50,"data_ocupacao":"2021-10-13 19:42:24","latitude":"38.773079","longitude":"-9.159321","tipo":"Estrutura"},{"id_parque":"P016","nome":"Universidade","activo":1,"id_entidade":7,"capacidade_max":247,"ocupacao":30,"data_ocupacao":"2021-10-13 19:42:25","latitude":"38.750671","longitude":"-9.158464","tipo":"Superf\u00edcie"},{"id_parque":"P007","nome":"Alves Redol","activo":1,"id_entidade":2,"capacidade_max":166,"ocupacao":119,"data_ocupacao":"2021-10-13 19:42:22","latitude":"38.735297","longitude":"-9.14040499999999","tipo":"Estrutura"},{"id_parque":"P044","nome":"Telheiras Nascente","activo":1,"id_entidade":7,"capacidade_max":109,"ocupacao":26,"data_ocupacao":"2021-10-13 19:42:23","latitude":"38.761512","longitude":"-9.164886","tipo":"Estrutura"},{"id_parque":"P034","nome":"Avenida Lus\u00edada","activo":1,"id_entidade":7,"capacidade_max":92,"ocupacao":57,"data_ocupacao":"2021-10-13 19:42:24","latitude":"38.75214","longitude":"-9.188309","tipo":"Superf\u00edcie"},{"id_parque":"P031","nome":"Cal\u00e7ada do Combro","activo":1,"id_entidade":7,"capacidade_max":248,"ocupacao":35,"data_ocupacao":"2021-10-13 19:42:24","latitude":"38.711188","longitude":"-9.147541","tipo":"Estrutura"},{"id_parque":"P028","nome":"Ch\u00e3o do Loureiro","activo":1,"id_entidade":7,"capacidade_max":192,"ocupacao":19,"data_ocupacao":"2021-10-13 19:42:24","latitude":"38.712416","longitude":"-9.135017","tipo":"Estrutura"},{"id_parque":"P009","nome":"Centro Campo Pequeno","activo":1,"id_entidade":1,"capacidade_max":1250,"ocupacao":327,"data_ocupacao":"2021-10-13 19:42:25","latitude":"38.7423520945922","longitude":"-9.14493799209595","tipo":"Estrutura"},{"id_parque":"P047","nome":"Damasceno Monteiro","activo":1,"id_entidade":7,"capacidade_max":81,"ocupacao":37,"data_ocupacao":"2021-10-13 19:42:27","latitude":"38.718095","longitude":"-9.130581","tipo":"Superf\u00edcie"},{"id_parque":"P006","nome":"Arco Cego","activo":1,"id_entidade":2,"capacidade_max":255,"ocupacao":201,"data_ocupacao":"2021-10-13 19:42:21","latitude":"38.737444","longitude":"-9.14209400000004","tipo":"Estrutura"},{"id_parque":"P027","nome":"Casal Vistoso","activo":1,"id_entidade":7,"capacidade_max":256,"ocupacao":75,"data_ocupacao":"2021-10-13 19:42:24","latitude":"38.742375","longitude":"-9.128965","tipo":"Estrutura"},{"id_parque":"P020","nome":"Sousa Pinto","activo":1,"id_entidade":7,"capacidade_max":135,"ocupacao":27,"data_ocupacao":"2021-10-13 19:42:25","latitude":"38.724475","longitude":"-9.157032","tipo":"Superf\u00edcie\r\n"},{"id_parque":"P041","nome":"Santos-Rio","activo":1,"id_entidade":7,"capacidade_max":210,"ocupacao":134,"data_ocupacao":"2021-10-13 19:42:27","latitude":"38.706138","longitude":"-9.151017","tipo":"Superf\u00edcie"},{"id_parque":"P064","nome":"Olivais","activo":1,"id_entidade":7,"capacidade_max":248,"ocupacao":227,"data_ocupacao":"2021-10-13 19:42:23","latitude":"38.716819","longitude":"-9.128867","tipo":"Estrutura"},{"id_parque":"P025","nome":"Campo Grande","activo":1,"id_entidade":7,"capacidade_max":196,"ocupacao":29,"data_ocupacao":"2021-10-13 19:42:24","latitude":"38.757586","longitude":"-9.155495","tipo":"Superf\u00edcie"},{"id_parque":"P023","nome":"Areeiro","activo":1,"id_entidade":7,"capacidade_max":180,"ocupacao":45,"data_ocupacao":"2021-10-13 19:42:25","latitude":"38.744081","longitude":"-9.132344","tipo":"Superf\u00edcie"},{"id_parque":"P024","nome":"Bel\u00e9m","activo":1,"id_entidade":7,"capacidade_max":76,"ocupacao":55,"data_ocupacao":"2021-10-13 19:42:24","latitude":"38.69723","longitude":"-9.203909","tipo":"Superf\u00edcie"},{"id_parque":"P058","nome":"Campo de Ourique","activo":1,"id_entidade":7,"capacidade_max":0,"ocupacao":0,"data_ocupacao":"2021-10-13 19:42:26","latitude":"38.719168","longitude":"-9.170647","tipo":"Estrutura"},{"id_parque":"P057","nome":"Manuel Gouveia","activo":1,"id_entidade":7,"capacidade_max":398,"ocupacao":10,"data_ocupacao":"2021-10-13 19:42:22","latitude":"38.744327","longitude":"-9.130995","tipo":"Estrutura"},{"id_parque":"P046","nome":"Torres de Lisboa","activo":1,"id_entidade":7,"capacidade_max":98,"ocupacao":29,"data_ocupacao":"2021-10-13 19:42:27","latitude":"38.756548","longitude":"-9.176896","tipo":"Superf\u00edcie"},{"id_parque":"P018","nome":"Roma","activo":1,"id_entidade":2,"capacidade_max":602,"ocupacao":491,"data_ocupacao":"2021-10-13 19:42:22","latitude":"38.7492735","longitude":"-9.1418056","tipo":"Estrutura"},{"id_parque":"P061","nome":"Parque Vila Maria","activo":1,"id_entidade":7,"capacidade_max":67,"ocupacao":0,"data_ocupacao":"2021-10-13 19:42:27","latitude":"38.725041","longitude":"-9.166372","tipo":"Estrutura"},{"id_parque":"P001","nome":"Marqu\u00eas de Pombal","activo":1,"id_entidade":2,"capacidade_max":1145,"ocupacao":680,"data_ocupacao":"2021-10-13 19:42:25","latitude":"38.7247865","longitude":"-9.15104299999","tipo":"Estrutura"},{"id_parque":"P062","nome":"Parque da Gra\u00e7a","activo":1,"id_entidade":7,"capacidade_max":115,"ocupacao":0,"data_ocupacao":"2021-10-13 19:42:27","latitude":"38.716819","longitude":"-9.128867","tipo":"Estrutura"},{"id_parque":"P005","nome":"Saldanha Residence","activo":1,"id_entidade":2,"capacidade_max":503,"ocupacao":291,"data_ocupacao":"2021-10-13 19:42:21","latitude":"38.7323043382636","longitude":"-9.14548192620168","tipo":"Estrutura"},{"id_parque":"P049","nome":"Pq. de Santos - D. Luis I","activo":1,"id_entidade":7,"capacidade_max":202,"ocupacao":31,"data_ocupacao":"2021-10-13 19:42:22","latitude":"38.707681","longitude":"-9.15221","tipo":"Estrutura"},{"id_parque":"P029","nome":"Col\u00e9gio Militar","activo":1,"id_entidade":7,"capacidade_max":415,"ocupacao":210,"data_ocupacao":"2021-10-13 19:42:26","latitude":"38.752172","longitude":"-9.188327","tipo":"Superf\u00edcie"}]